<?xml version='1.0' encoding='UTF-8'?>
<kml xmlns='http://www.opengis.net/kml/2.2'>
	<Document>
		<name>Други (wikimapia)</name>
		<Placemark>
			<name>D: бывш. Химический Завод (ru)</name>
			<description><![CDATA[бывш. Химический Завод (ru) ]]></description>
			<styleUrl>#icon-1257</styleUrl>
			<ExtendedData>
			</ExtendedData>
			<Point>
				<coordinates>25.960543,43.872777,0.0</coordinates>
			</Point>
		</Placemark>
		<Placemark>
			<name>Антична и късноантична крепост</name>
			<description><![CDATA[Антична и късноантична крепост ]]></description>
			<styleUrl>#icon-1257</styleUrl>
			<ExtendedData>
			</ExtendedData>
			<Point>
				<coordinates>26.152149,43.457342,0.0</coordinates>
			</Point>
		</Placemark>
		<Placemark>
			<name>Крепост Апиария</name>
			<description><![CDATA[Крепост Апиария ]]></description>
			<styleUrl>#icon-1257</styleUrl>
			<ExtendedData>
			</ExtendedData>
			<Point>
				<coordinates>26.309402,44.019114,0.0</coordinates>
			</Point>
		</Placemark>
		<Placemark>
			<name>Крепост Голямо градище</name>
			<description><![CDATA[Крепост Голямо градище ]]></description>
			<styleUrl>#icon-1257</styleUrl>
			<ExtendedData>
			</ExtendedData>
			<Point>
				<coordinates>26.192254,43.66623400000001,0.0</coordinates>
			</Point>
		</Placemark>
		<Placemark>
			<name>Късноантична и средновековна крепост Манастира</name>
			<description><![CDATA[Късноантична и средновековна крепост Манастира ]]></description>
			<styleUrl>#icon-1257</styleUrl>
			<ExtendedData>
			</ExtendedData>
			<Point>
				<coordinates>26.324572,43.642784,0.0</coordinates>
			</Point>
		</Placemark>
		<Placemark>
			<name>Късноантична крепост "Кале на мерата"</name>
			<description><![CDATA[Късноантична крепост "Кале на мерата" ]]></description>
			<styleUrl>#icon-1257</styleUrl>
			<ExtendedData>
			</ExtendedData>
			<Point>
				<coordinates>25.94607,43.55875,0.0</coordinates>
			</Point>
		</Placemark>
		<Placemark>
			<name>Крепост Малко градище</name>
			<description><![CDATA[Крепост Малко градище ]]></description>
			<styleUrl>#icon-1257</styleUrl>
			<ExtendedData>
			</ExtendedData>
			<Point>
				<coordinates>26.187951,43.66618,0.0</coordinates>
			</Point>
		</Placemark>
		<Placemark>
			<name>Българско землено укрепление</name>
			<description><![CDATA[Българско землено укрепление ]]></description>
			<styleUrl>#icon-1257</styleUrl>
			<ExtendedData>
			</ExtendedData>
			<Point>
				<coordinates>25.68508,43.509281,0.0</coordinates>
			</Point>
		</Placemark>
		<Placemark>
			<name>Късноантично укрепено селище</name>
			<description><![CDATA[Късноантично укрепено селище ]]></description>
			<styleUrl>#icon-1257</styleUrl>
			<ExtendedData>
			</ExtendedData>
			<Point>
				<coordinates>26.21222,43.444702,0.0</coordinates>
			</Point>
		</Placemark>
		<Placemark>
			<name>Крепост Калето</name>
			<description><![CDATA[Крепост Калето ]]></description>
			<styleUrl>#icon-1257</styleUrl>
			<ExtendedData>
			</ExtendedData>
			<Point>
				<coordinates>25.841018,43.74980800000001,0.0</coordinates>
			</Point>
		</Placemark>
		<Placemark>
			<name>Крепост Чилингир</name>
			<description><![CDATA[Крепост Чилингир ]]></description>
			<styleUrl>#icon-1257</styleUrl>
			<ExtendedData>
			</ExtendedData>
			<Point>
				<coordinates>26.060439,43.622485,0.0</coordinates>
			</Point>
		</Placemark>
		<Placemark>
			<name>Крепост Скаидава</name>
			<description><![CDATA[Крепост Скаидава ]]></description>
			<styleUrl>#icon-1257</styleUrl>
			<ExtendedData>
			</ExtendedData>
			<Point>
				<coordinates>25.684007,43.669447,0.0</coordinates>
			</Point>
		</Placemark>
		<Placemark>
			<name>Крепост Калето</name>
			<description><![CDATA[Крепост Калето ]]></description>
			<styleUrl>#icon-1257</styleUrl>
			<ExtendedData>
			</ExtendedData>
			<Point>
				<coordinates>26.136909,43.401154,0.0</coordinates>
			</Point>
		</Placemark>
		<Placemark>
			<name>Римски път</name>
			<description><![CDATA[Римски път ]]></description>
			<styleUrl>#icon-1257</styleUrl>
			<ExtendedData>
			</ExtendedData>
			<Point>
				<coordinates>25.577937,43.634964,0.0</coordinates>
			</Point>
		</Placemark>
		<Placemark>
			<name>Крепост Сиври канара</name>
			<description><![CDATA[Крепост Сиври канара ]]></description>
			<styleUrl>#icon-1257</styleUrl>
			<ExtendedData>
			</ExtendedData>
			<Point>
				<coordinates>26.364071,43.643339,0.0</coordinates>
			</Point>
		</Placemark>
		<Placemark>
			<name>Крепост Бялата стена</name>
			<description><![CDATA[Крепост Бялата стена ]]></description>
			<styleUrl>#icon-1257</styleUrl>
			<ExtendedData>
			</ExtendedData>
			<Point>
				<coordinates>26.0943,43.603881,0.0</coordinates>
			</Point>
		</Placemark>
		<Placemark>
			<name>Крепост Тримамиум</name>
			<description><![CDATA[Крепост Тримамиум ]]></description>
			<styleUrl>#icon-1257</styleUrl>
			<ExtendedData>
			</ExtendedData>
			<Point>
				<coordinates>25.798119,43.713108,0.0</coordinates>
			</Point>
		</Placemark>
		<Placemark>
			<name>Късноантична крепост Син град</name>
			<description><![CDATA[Късноантична крепост Син град ]]></description>
			<styleUrl>#icon-1257</styleUrl>
			<ExtendedData>
			</ExtendedData>
			<Point>
				<coordinates>26.296602,43.655368,0.0</coordinates>
			</Point>
		</Placemark>
		<Placemark>
			<name>Крепост Гърчиновско градище</name>
			<description><![CDATA[Крепост Гърчиновско градище ]]></description>
			<styleUrl>#icon-1257</styleUrl>
			<ExtendedData>
			</ExtendedData>
			<Point>
				<coordinates>26.147558,43.486754,0.0</coordinates>
			</Point>
		</Placemark>
		<Placemark>
			<name>Крепост Малкото кале</name>
			<description><![CDATA[Крепост Малкото кале ]]></description>
			<styleUrl>#icon-1257</styleUrl>
			<ExtendedData>
			</ExtendedData>
			<Point>
				<coordinates>26.267897,43.466812,0.0</coordinates>
			</Point>
		</Placemark>
		<Placemark>
			<name>Крепост Сексагинта Приста</name>
			<description><![CDATA[Крепост Сексагинта Приста ]]></description>
			<styleUrl>#icon-1257</styleUrl>
			<ExtendedData>
			</ExtendedData>
			<Point>
				<coordinates>25.945043000000002,43.84572800000001,0.0</coordinates>
			</Point>
		</Placemark>
		<Placemark>
			<name>Крепост Малкото кале</name>
			<description><![CDATA[Крепост Малкото кале ]]></description>
			<styleUrl>#icon-1257</styleUrl>
			<ExtendedData>
			</ExtendedData>
			<Point>
				<coordinates>26.204678,43.436101,0.0</coordinates>
			</Point>
		</Placemark>
		<Placemark>
			<name>Крепост Голямото кале</name>
			<description><![CDATA[Крепост Голямото кале ]]></description>
			<styleUrl>#icon-1257</styleUrl>
			<ExtendedData>
			</ExtendedData>
			<Point>
				<coordinates>26.202934,43.438672,0.0</coordinates>
			</Point>
		</Placemark>
		<Placemark>
			<name>Късноантична и средновековна крепост "Хисарлъка"</name>
			<description><![CDATA[Късноантична и средновековна крепост "Хисарлъка" ]]></description>
			<styleUrl>#icon-1257</styleUrl>
			<ExtendedData>
			</ExtendedData>
			<Point>
				<coordinates>25.672686,43.427254,0.0</coordinates>
			</Point>
		</Placemark>
		<Placemark>
			<name>Крепост Кръстовица</name>
			<description><![CDATA[Крепост Кръстовица ]]></description>
			<styleUrl>#icon-1257</styleUrl>
			<ExtendedData>
			</ExtendedData>
			<Point>
				<coordinates>25.944766,43.546592,0.0</coordinates>
			</Point>
		</Placemark>
		<Placemark>
			<name>Крепост Малкото кале</name>
			<description><![CDATA[Крепост Малкото кале ]]></description>
			<styleUrl>#icon-1257</styleUrl>
			<ExtendedData>
			</ExtendedData>
			<Point>
				<coordinates>26.214082,43.446248,0.0</coordinates>
			</Point>
		</Placemark>
		<Placemark>
			<name>Крепост Калето</name>
			<description><![CDATA[Крепост Калето ]]></description>
			<styleUrl>#icon-1257</styleUrl>
			<ExtendedData>
			</ExtendedData>
			<Point>
				<coordinates>25.861693,43.760208000000006,0.0</coordinates>
			</Point>
		</Placemark>
		<Placemark>
			<name>Крепост Буюк кале</name>
			<description><![CDATA[Крепост Буюк кале ]]></description>
			<styleUrl>#icon-1257</styleUrl>
			<ExtendedData>
			</ExtendedData>
			<Point>
				<coordinates>26.109191,43.449449,0.0</coordinates>
			</Point>
		</Placemark>
		<Placemark>
			<name>Крепостен форт "Илдъз табия"</name>
			<description><![CDATA[Крепостен форт "Илдъз табия" ]]></description>
			<styleUrl>#icon-1257</styleUrl>
			<ExtendedData>
			</ExtendedData>
			<Point>
				<coordinates>25.991608,43.824047,0.0</coordinates>
			</Point>
		</Placemark>
		<Placemark>
			<name>Крепост Кайнарджа</name>
			<description><![CDATA[Крепост Кайнарджа ]]></description>
			<styleUrl>#icon-1257</styleUrl>
			<ExtendedData>
			</ExtendedData>
			<Point>
				<coordinates>25.924569000000005,43.433289,0.0</coordinates>
			</Point>
		</Placemark>
		<Placemark>
			<name>Крепост Кале Даково</name>
			<description><![CDATA[Крепост Кале Даково ]]></description>
			<styleUrl>#icon-1257</styleUrl>
			<ExtendedData>
			</ExtendedData>
			<Point>
				<coordinates>26.071774,43.61713,0.0</coordinates>
			</Point>
		</Placemark>
		<Placemark>
			<name>Крепост Крепча</name>
			<description><![CDATA[Крепост Крепча ]]></description>
			<styleUrl>#icon-1257</styleUrl>
			<ExtendedData>
			</ExtendedData>
			<Point>
				<coordinates>26.112201,43.465091,0.0</coordinates>
			</Point>
		</Placemark>
		<Placemark>
			<name>Римски път</name>
			<description><![CDATA[Римски път ]]></description>
			<styleUrl>#icon-1257</styleUrl>
			<ExtendedData>
			</ExtendedData>
			<Point>
				<coordinates>26.039754,43.666832,0.0</coordinates>
			</Point>
		</Placemark>
		<Placemark>
			<name>Крепост Голямото кале</name>
			<description><![CDATA[Крепост Голямото кале ]]></description>
			<styleUrl>#icon-1257</styleUrl>
			<ExtendedData>
			</ExtendedData>
			<Point>
				<coordinates>26.263697,43.460746,0.0</coordinates>
			</Point>
		</Placemark>
		<Placemark>
			<name>Късноантична крепост</name>
			<description><![CDATA[Късноантична крепост ]]></description>
			<styleUrl>#icon-1257</styleUrl>
			<ExtendedData>
			</ExtendedData>
			<Point>
				<coordinates>25.817372,43.742007,0.0</coordinates>
			</Point>
		</Placemark>
		<Placemark>
			<name>Крепост Орлес кале</name>
			<description><![CDATA[Крепост Орлес кале ]]></description>
			<styleUrl>#icon-1257</styleUrl>
			<ExtendedData>
			</ExtendedData>
			<Point>
				<coordinates>26.247336000000004,43.511304,0.0</coordinates>
			</Point>
		</Placemark>
		<Placemark>
			<name>Крепост Ойнарджа кале</name>
			<description><![CDATA[Крепост Ойнарджа кале ]]></description>
			<styleUrl>#icon-1257</styleUrl>
			<ExtendedData>
			</ExtendedData>
			<Point>
				<coordinates>26.364988,43.36665000000001,0.0</coordinates>
			</Point>
		</Placemark>
		<Placemark>
			<name>Крепост Пеньова могила</name>
			<description><![CDATA[Крепост Пеньова могила ]]></description>
			<styleUrl>#icon-1257</styleUrl>
			<ExtendedData>
			</ExtendedData>
			<Point>
				<coordinates>26.145481000000004,43.572354,0.0</coordinates>
			</Point>
		</Placemark>
		<Placemark>
			<name>Крепост Чаушка</name>
			<description><![CDATA[Крепост Чаушка ]]></description>
			<styleUrl>#icon-1257</styleUrl>
			<ExtendedData>
			</ExtendedData>
			<Point>
				<coordinates>26.007348,43.685831,0.0</coordinates>
			</Point>
		</Placemark>
		<Placemark>
			<name>Бивша помпена станция</name>
			<description><![CDATA[Бивша помпена станция ]]></description>
			<styleUrl>#icon-1257</styleUrl>
			<ExtendedData>
			</ExtendedData>
			<Point>
				<coordinates>26.317212,43.433723,0.0</coordinates>
			</Point>
		</Placemark>
		<Placemark>
			<name>Крепост Доброселско кале</name>
			<description><![CDATA[Крепост Доброселско кале ]]></description>
			<styleUrl>#icon-1257</styleUrl>
			<ExtendedData>
			</ExtendedData>
			<Point>
				<coordinates>26.24107,43.49455,0.0</coordinates>
			</Point>
		</Placemark>
		<Placemark>
			<name>Руини от военно укрепление</name>
			<description><![CDATA[Руини от военно укрепление ]]></description>
			<styleUrl>#icon-1257</styleUrl>
			<ExtendedData>
			</ExtendedData>
			<Point>
				<coordinates>26.060976,43.853206,0.0</coordinates>
			</Point>
		</Placemark>
		<Placemark>
			<name>Крепост Калето</name>
			<description><![CDATA[Крепост Калето ]]></description>
			<styleUrl>#icon-1257</styleUrl>
			<ExtendedData>
			</ExtendedData>
			<Point>
				<coordinates>26.2739,43.461571,0.0</coordinates>
			</Point>
		</Placemark>
		<Placemark>
			<name>Крепост "Гюргево"</name>
			<description><![CDATA[Крепост "Гюргево" ]]></description>
			<styleUrl>#icon-1257</styleUrl>
			<ExtendedData>
			</ExtendedData>
			<Point>
				<coordinates>25.961906,43.88355,0.0</coordinates>
			</Point>
		</Placemark>
		<Placemark>
			<name>Помпена станция</name>
			<description><![CDATA[Помпена станция ]]></description>
			<styleUrl>#icon-1257</styleUrl>
			<ExtendedData>
			</ExtendedData>
			<Point>
				<coordinates>26.336747,43.449893,0.0</coordinates>
			</Point>
		</Placemark>
		<Placemark>
			<name>Антично укрепление</name>
			<description><![CDATA[Антично укрепление ]]></description>
			<styleUrl>#icon-1257</styleUrl>
			<ExtendedData>
			</ExtendedData>
			<Point>
				<coordinates>26.314694,43.893734,0.0</coordinates>
			</Point>
		</Placemark>
		<Placemark>
			<name>Епископска резиденция</name>
			<description><![CDATA[Епископска резиденция ]]></description>
			<styleUrl>#icon-1257</styleUrl>
			<ExtendedData>
			</ExtendedData>
			<Point>
				<coordinates>26.017175000000005,43.620583,0.0</coordinates>
			</Point>
		</Placemark>
		<Placemark>
			<name>Църква №2</name>
			<description><![CDATA[Църква №2 ]]></description>
			<styleUrl>#icon-1257</styleUrl>
			<ExtendedData>
			</ExtendedData>
			<Point>
				<coordinates>26.020868,43.622776,0.0</coordinates>
			</Point>
		</Placemark>
		<Placemark>
			<name>Църква №1</name>
			<description><![CDATA[Църква №1 ]]></description>
			<styleUrl>#icon-1257</styleUrl>
			<ExtendedData>
			</ExtendedData>
			<Point>
				<coordinates>26.019077,43.621555,0.0</coordinates>
			</Point>
		</Placemark>
		<Placemark>
			<name>Средновековна църква</name>
			<description><![CDATA[Средновековна църква ]]></description>
			<styleUrl>#icon-1257</styleUrl>
			<ExtendedData>
			</ExtendedData>
			<Point>
				<coordinates>26.270907,43.664759,0.0</coordinates>
			</Point>
		</Placemark>
		<Placemark>
			<name>Тракийска гробница</name>
			<description><![CDATA[Тракийска гробница ]]></description>
			<styleUrl>#icon-1257</styleUrl>
			<ExtendedData>
			</ExtendedData>
			<Point>
				<coordinates>26.202135,43.41924,0.0</coordinates>
			</Point>
		</Placemark>
		<Placemark>
			<name>Старата воденица</name>
			<description><![CDATA[Старата воденица ]]></description>
			<styleUrl>#icon-1257</styleUrl>
			<ExtendedData>
			</ExtendedData>
			<Point>
				<coordinates>25.958879,43.717446,0.0</coordinates>
			</Point>
		</Placemark>
		<Placemark>
			<name>Праисторическо и антично светилище във "Водна пещера"</name>
			<description><![CDATA[Праисторическо и антично светилище във "Водна пещера" ]]></description>
			<styleUrl>#icon-1257</styleUrl>
			<ExtendedData>
			</ExtendedData>
			<Point>
				<coordinates>25.992376,43.60317,0.0</coordinates>
			</Point>
		</Placemark>
		<Placemark>
			<name>Голям нисовски скален манастир ,,Св.св. Константин и Елена"</name>
			<description><![CDATA[Голям нисовски скален манастир ,,Св.св. Константин и Елена" ]]></description>
			<styleUrl>#icon-1257</styleUrl>
			<ExtendedData>
			</ExtendedData>
			<Point>
				<coordinates>26.065825,43.624866,0.0</coordinates>
			</Point>
		</Placemark>
		<Placemark>
			<name>Скален манастирски комплекс "Грамовец"</name>
			<description><![CDATA[Скален манастирски комплекс "Грамовец" ]]></description>
			<styleUrl>#icon-1257</styleUrl>
			<ExtendedData>
			</ExtendedData>
			<Point>
				<coordinates>25.995648,43.68367,0.0</coordinates>
			</Point>
		</Placemark>
		<Placemark>
			<name>Крепчански скален манастир</name>
			<description><![CDATA[Крепчански скален манастир ]]></description>
			<styleUrl>#icon-1257</styleUrl>
			<ExtendedData>
			</ExtendedData>
			<Point>
				<coordinates>26.118482,43.468365,0.0</coordinates>
			</Point>
		</Placemark>
		<Placemark>
			<name>Скална църква Св. Богородица</name>
			<description><![CDATA[Скална църква Св. Богородица ]]></description>
			<styleUrl>#icon-1257</styleUrl>
			<ExtendedData>
			</ExtendedData>
			<Point>
				<coordinates>25.987226,43.69459,0.0</coordinates>
			</Point>
		</Placemark>
		<Placemark>
			<name>Скална църква при с.Табачка</name>
			<description><![CDATA[Скална църква при с.Табачка ]]></description>
			<styleUrl>#icon-1257</styleUrl>
			<ExtendedData>
			</ExtendedData>
			<Point>
				<coordinates>25.982936,43.613169,0.0</coordinates>
			</Point>
		</Placemark>
		<Placemark>
			<name>Шарапташ - с.Кошов</name>
			<description><![CDATA[Шарапташ - с.Кошов ]]></description>
			<styleUrl>#icon-1257</styleUrl>
			<ExtendedData>
			</ExtendedData>
			<Point>
				<coordinates>25.9891,43.666646,0.0</coordinates>
			</Point>
		</Placemark>
		<Placemark>
			<name>Природен парк "Русенски Лом"</name>
			<description><![CDATA[Природен парк "Русенски Лом" ]]></description>
			<styleUrl>#icon-1257</styleUrl>
			<ExtendedData>
			</ExtendedData>
			<Point>
				<coordinates>26.064291000000004,43.651095,0.0</coordinates>
			</Point>
		</Placemark>
		<Placemark>
			<name>Ивановски скални църкви</name>
			<description><![CDATA[Ивановски скални църкви ]]></description>
			<styleUrl>#icon-1257</styleUrl>
			<ExtendedData>
			</ExtendedData>
			<Point>
				<coordinates>25.9901281,43.6985226,0.0</coordinates>
			</Point>
		</Placemark>
		<Placemark>
			<name>Крепост Че́рвен</name>
			<description><![CDATA[Крепост Че́рвен ]]></description>
			<styleUrl>#icon-1257</styleUrl>
			<ExtendedData>
			</ExtendedData>
			<Point>
				<coordinates>26.019069,43.621416,0.0</coordinates>
			</Point>
		</Placemark>
		<Placemark>
			<name>БЕБ "Калимок"</name>
			<description><![CDATA[БЕБ "Калимок" ]]></description>
			<styleUrl>#icon-1257</styleUrl>
			<ExtendedData>
			</ExtendedData>
			<Point>
				<coordinates>26.43807,44.011718,0.0</coordinates>
			</Point>
		</Placemark>
		<Placemark>
			<name>Крепост Ковачевско кале</name>
			<description><![CDATA[Крепост Ковачевско кале ]]></description>
			<styleUrl>#icon-1257</styleUrl>
			<ExtendedData>
			</ExtendedData>
			<Point>
				<coordinates>26.146372,43.358835,0.0</coordinates>
			</Point>
		</Placemark>
		<Placemark>
			<name>Римски път</name>
			<description><![CDATA[Римски път ]]></description>
			<styleUrl>#icon-1257</styleUrl>
			<ExtendedData>
			</ExtendedData>
			<Point>
				<coordinates>25.577937,43.634964,0.0</coordinates>
			</Point>
		</Placemark>
		<Placemark>
			<name>Надпис с дървета "1300"</name>
			<description><![CDATA[Надпис с дървета "1300" ]]></description>
			<styleUrl>#icon-1257</styleUrl>
			<ExtendedData>
			</ExtendedData>
			<Point>
				<coordinates>25.788962,43.569773,0.0</coordinates>
			</Point>
		</Placemark>
		<Placemark>
			<name>Restaurant Balanoaia Forest (en)</name>
			<description><![CDATA[Restaurant Balanoaia Forest (en) ]]></description>
			<styleUrl>#icon-1257</styleUrl>
			<ExtendedData>
			</ExtendedData>
			<Point>
				<coordinates>25.930819,43.93057,0.0</coordinates>
			</Point>
		</Placemark>
		<Placemark>
			<name>Посетителски център</name>
			<description><![CDATA[Посетителски център ]]></description>
			<styleUrl>#icon-1257</styleUrl>
			<ExtendedData>
			</ExtendedData>
			<Point>
				<coordinates>26.143312,43.358672,0.0</coordinates>
			</Point>
		</Placemark>
		<Placemark>
			<name>Място "Търкулестия трап"</name>
			<description><![CDATA[Място "Търкулестия трап" ]]></description>
			<styleUrl>#icon-1257</styleUrl>
			<ExtendedData>
			</ExtendedData>
			<Point>
				<coordinates>26.020021,43.727739,0.0</coordinates>
			</Point>
		</Placemark>
		<Placemark>
			<name>Музей на открито “Сексагинта Приста”</name>
			<description><![CDATA[Музей на открито “Сексагинта Приста” ]]></description>
			<styleUrl>#icon-1257</styleUrl>
			<ExtendedData>
			</ExtendedData>
			<Point>
				<coordinates>25.944658,43.845762,0.0</coordinates>
			</Point>
		</Placemark>
		<Placemark>
			<name>Къщата на банкера Иван Симеонов</name>
			<description><![CDATA[Къщата на банкера Иван Симеонов ]]></description>
			<styleUrl>#icon-1257</styleUrl>
			<ExtendedData>
			</ExtendedData>
			<Point>
				<coordinates>25.952845,43.845473,0.0</coordinates>
			</Point>
		</Placemark>
		<Placemark>
			<name>Скала Побит камък</name>
			<description><![CDATA[Скала Побит камък ]]></description>
			<styleUrl>#icon-1257</styleUrl>
			<ExtendedData>
			</ExtendedData>
			<Point>
				<coordinates>25.796735,43.717182,0.0</coordinates>
			</Point>
		</Placemark>
		<Placemark>
			<name>Беленски мост</name>
			<description><![CDATA[Беленски мост ]]></description>
			<styleUrl>#icon-1257</styleUrl>
			<ExtendedData>
			</ExtendedData>
			<Point>
				<coordinates>25.724988,43.46961,0.0</coordinates>
			</Point>
		</Placemark>
		<Placemark>
			<name>Пантеон на Възрожденците</name>
			<description><![CDATA[Пантеон на Възрожденците ]]></description>
			<styleUrl>#icon-1257</styleUrl>
			<ExtendedData>
			</ExtendedData>
			<Point>
				<coordinates>25.960744,43.850638,0.0</coordinates>
			</Point>
		</Placemark>
		<Placemark>
			<name>Куклен театър</name>
			<description><![CDATA[Куклен театър ]]></description>
			<styleUrl>#icon-1257</styleUrl>
			<ExtendedData>
			</ExtendedData>
			<Point>
				<coordinates>25.947671,43.848249,0.0</coordinates>
			</Point>
		</Placemark>
		<Placemark>
			<name>Голям нисовски скален манастир ,,Св.св. Константин и Елена"</name>
			<description><![CDATA[Голям нисовски скален манастир ,,Св.св. Константин и Елена" ]]></description>
			<styleUrl>#icon-1257</styleUrl>
			<ExtendedData>
			</ExtendedData>
			<Point>
				<coordinates>26.065825,43.624866,0.0</coordinates>
			</Point>
		</Placemark>
		<Placemark>
			<name>Скален манастирски комплекс "Грамовец"</name>
			<description><![CDATA[Скален манастирски комплекс "Грамовец" ]]></description>
			<styleUrl>#icon-1257</styleUrl>
			<ExtendedData>
			</ExtendedData>
			<Point>
				<coordinates>25.995648,43.68367,0.0</coordinates>
			</Point>
		</Placemark>
		<Placemark>
			<name>Зоопарк и детска площадка</name>
			<description><![CDATA[Зоопарк и детска площадка ]]></description>
			<styleUrl>#icon-1257</styleUrl>
			<ExtendedData>
			</ExtendedData>
			<Point>
				<coordinates>25.787601,43.615959,0.0</coordinates>
			</Point>
		</Placemark>
		<Placemark>
			<name>ДСК</name>
			<description><![CDATA[ДСК ]]></description>
			<styleUrl>#icon-1257</styleUrl>
			<ExtendedData>
			</ExtendedData>
			<Point>
				<coordinates>25.949449,43.845463,0.0</coordinates>
			</Point>
		</Placemark>
		<Placemark>
			<name>Teren de fotbal-Scoala Nr. 1 (ro)</name>
			<description><![CDATA[Teren de fotbal-Scoala Nr. 1 (ro) ]]></description>
			<styleUrl>#icon-1257</styleUrl>
			<ExtendedData>
			</ExtendedData>
			<Point>
				<coordinates>25.958452,43.889632,0.0</coordinates>
			</Point>
		</Placemark>
		<Placemark>
			<name>Първата сградата на Deutsche Shule /Немското училище/</name>
			<description><![CDATA[Първата сградата на Deutsche Shule /Немското училище/ ]]></description>
			<styleUrl>#icon-1257</styleUrl>
			<ExtendedData>
			</ExtendedData>
			<Point>
				<coordinates>25.954565,43.844192,0.0</coordinates>
			</Point>
		</Placemark>
		<Placemark>
			<name>Palatul copiilor (ro)</name>
			<description><![CDATA[Palatul copiilor (ro) ]]></description>
			<styleUrl>#icon-1257</styleUrl>
			<ExtendedData>
			</ExtendedData>
			<Point>
				<coordinates>25.958542,43.895026,0.0</coordinates>
			</Point>
		</Placemark>
		<Placemark>
			<name>Къщата на банкера С.Симеонов</name>
			<description><![CDATA[Къщата на банкера С.Симеонов ]]></description>
			<styleUrl>#icon-1257</styleUrl>
			<ExtendedData>
			</ExtendedData>
			<Point>
				<coordinates>25.953274,43.846125,0.0</coordinates>
			</Point>
		</Placemark>
		<Placemark>
			<name>Мамула</name>
			<description><![CDATA[Мамула ]]></description>
			<styleUrl>#icon-1257</styleUrl>
			<ExtendedData>
			</ExtendedData>
			<Point>
				<coordinates>26.164624,43.662378,0.0</coordinates>
			</Point>
		</Placemark>
		<Placemark>
			<name>Къщата на Сабатай Авталион</name>
			<description><![CDATA[Къщата на Сабатай Авталион ]]></description>
			<styleUrl>#icon-1257</styleUrl>
			<ExtendedData>
			</ExtendedData>
			<Point>
				<coordinates>25.951815,43.842954,0.0</coordinates>
			</Point>
		</Placemark>
		<Placemark>
			<name>Пещера „Орлова чука“</name>
			<description><![CDATA[Пещера „Орлова чука“ ]]></description>
			<styleUrl>#icon-1257</styleUrl>
			<ExtendedData>
			</ExtendedData>
			<Point>
				<coordinates>25.960267,43.593141,0.0</coordinates>
			</Point>
		</Placemark>
		<Placemark>
			<name>Крепчански скален манастир</name>
			<description><![CDATA[Крепчански скален манастир ]]></description>
			<styleUrl>#icon-1257</styleUrl>
			<ExtendedData>
			</ExtendedData>
			<Point>
				<coordinates>26.118482,43.468365,0.0</coordinates>
			</Point>
		</Placemark>
		<Placemark>
			<name>Скален манастир</name>
			<description><![CDATA[Скален манастир ]]></description>
			<styleUrl>#icon-1257</styleUrl>
			<ExtendedData>
			</ExtendedData>
			<Point>
				<coordinates>25.969459,43.72807,0.0</coordinates>
			</Point>
		</Placemark>
		<Placemark>
			<name>Концертно бюро</name>
			<description><![CDATA[Концертно бюро ]]></description>
			<styleUrl>#icon-1257</styleUrl>
			<ExtendedData>
			</ExtendedData>
			<Point>
				<coordinates>25.954094,43.850022,0.0</coordinates>
			</Point>
		</Placemark>
		<Placemark>
			<name>Скална църква Св. Богородица</name>
			<description><![CDATA[Скална църква Св. Богородица ]]></description>
			<styleUrl>#icon-1257</styleUrl>
			<ExtendedData>
			</ExtendedData>
			<Point>
				<coordinates>25.987226,43.69459,0.0</coordinates>
			</Point>
		</Placemark>
		<Placemark>
			<name>Часовникова кула</name>
			<description><![CDATA[Часовникова кула ]]></description>
			<styleUrl>#icon-1257</styleUrl>
			<ExtendedData>
			</ExtendedData>
			<Point>
				<coordinates>25.73679,43.459935,0.0</coordinates>
			</Point>
		</Placemark>
		<Placemark>
			<name>Кюнт Капу</name>
			<description><![CDATA[Кюнт Капу ]]></description>
			<styleUrl>#icon-1257</styleUrl>
			<ExtendedData>
			</ExtendedData>
			<Point>
				<coordinates>25.948681000000004,43.830556,0.0</coordinates>
			</Point>
		</Placemark>
		<Placemark>
			<name>Скална църква при с.Табачка</name>
			<description><![CDATA[Скална църква при с.Табачка ]]></description>
			<styleUrl>#icon-1257</styleUrl>
			<ExtendedData>
			</ExtendedData>
			<Point>
				<coordinates>25.982936,43.613169,0.0</coordinates>
			</Point>
		</Placemark>
		<Placemark>
			<name>Паметник на българското морячество</name>
			<description><![CDATA[Паметник на българското морячество ]]></description>
			<styleUrl>#icon-1257</styleUrl>
			<ExtendedData>
			</ExtendedData>
			<Point>
				<coordinates>25.94445,43.845185,0.0</coordinates>
			</Point>
		</Placemark>
		<Placemark>
			<name>Пещера</name>
			<description><![CDATA[Пещера ]]></description>
			<styleUrl>#icon-1257</styleUrl>
			<ExtendedData>
			</ExtendedData>
			<Point>
				<coordinates>25.973115000000004,43.708394000000006,0.0</coordinates>
			</Point>
		</Placemark>
		<Placemark>
			<name>Вазата</name>
			<description><![CDATA[Вазата ]]></description>
			<styleUrl>#icon-1257</styleUrl>
			<ExtendedData>
			</ExtendedData>
			<Point>
				<coordinates>25.963786,43.856622,0.0</coordinates>
			</Point>
		</Placemark>
		<Placemark>
			<name>Крепост Ковачевско кале</name>
			<description><![CDATA[Крепост Ковачевско кале ]]></description>
			<styleUrl>#icon-1257</styleUrl>
			<ExtendedData>
			</ExtendedData>
			<Point>
				<coordinates>26.146372,43.358835,0.0</coordinates>
			</Point>
		</Placemark>
		<Placemark>
			<name>Исторически музей</name>
			<description><![CDATA[Исторически музей ]]></description>
			<styleUrl>#icon-1257</styleUrl>
			<ExtendedData>
			</ExtendedData>
			<Point>
				<coordinates>25.735015,43.461984,0.0</coordinates>
			</Point>
		</Placemark>
		<Placemark>
			<name>Музей на открито “Сексагинта Приста”</name>
			<description><![CDATA[Музей на открито “Сексагинта Приста” ]]></description>
			<styleUrl>#icon-1257</styleUrl>
			<ExtendedData>
			</ExtendedData>
			<Point>
				<coordinates>25.944658,43.845762,0.0</coordinates>
			</Point>
		</Placemark>
		<Placemark>
			<name>Градски исторически музей</name>
			<description><![CDATA[Градски исторически музей ]]></description>
			<styleUrl>#icon-1257</styleUrl>
			<ExtendedData>
			</ExtendedData>
			<Point>
				<coordinates>25.63488,43.373214,0.0</coordinates>
			</Point>
		</Placemark>
		<Placemark>
			<name>Muzeul Armatei (ro)</name>
			<description><![CDATA[Muzeul Armatei (ro) ]]></description>
			<styleUrl>#icon-1257</styleUrl>
			<ExtendedData>
			</ExtendedData>
			<Point>
				<coordinates>25.980426,43.90391400000001,0.0</coordinates>
			</Point>
		</Placemark>
		<Placemark>
			<name>County Museum "Teohari Antonescu" (en)</name>
			<description><![CDATA[County Museum "Teohari Antonescu" (en) ]]></description>
			<styleUrl>#icon-1257</styleUrl>
			<ExtendedData>
			</ExtendedData>
			<Point>
				<coordinates>25.963703,43.886498,0.0</coordinates>
			</Point>
		</Placemark>
		<Placemark>
			<name>Регионален исторически музей</name>
			<description><![CDATA[Регионален исторически музей ]]></description>
			<styleUrl>#icon-1257</styleUrl>
			<ExtendedData>
			</ExtendedData>
			<Point>
				<coordinates>25.947614,43.844142,0.0</coordinates>
			</Point>
		</Placemark>
		<Placemark>
			<name>Открит военен музей</name>
			<description><![CDATA[Открит военен музей ]]></description>
			<styleUrl>#icon-1257</styleUrl>
			<ExtendedData>
			</ExtendedData>
			<Point>
				<coordinates>25.787166,43.615902,0.0</coordinates>
			</Point>
		</Placemark>
		<Placemark>
			<name>Екомузей. Аквариум</name>
			<description><![CDATA[Екомузей. Аквариум ]]></description>
			<styleUrl>#icon-1257</styleUrl>
			<ExtendedData>
			</ExtendedData>
			<Point>
				<coordinates>25.947343,43.844761,0.0</coordinates>
			</Point>
		</Placemark>
		<Placemark>
			<name>Къща-музей "Захари Стоянов"</name>
			<description><![CDATA[Къща-музей "Захари Стоянов" ]]></description>
			<styleUrl>#icon-1257</styleUrl>
			<ExtendedData>
			</ExtendedData>
			<Point>
				<coordinates>25.949892,43.851486,0.0</coordinates>
			</Point>
		</Placemark>
		<Placemark>
			<name>Музей на градския бит</name>
			<description><![CDATA[Музей на градския бит ]]></description>
			<styleUrl>#icon-1257</styleUrl>
			<ExtendedData>
			</ExtendedData>
			<Point>
				<coordinates>25.951624,43.852346,0.0</coordinates>
			</Point>
		</Placemark>
		<Placemark>
			<name>Къща - музей "Баба Тонка"</name>
			<description><![CDATA[Къща - музей "Баба Тонка" ]]></description>
			<styleUrl>#icon-1257</styleUrl>
			<ExtendedData>
			</ExtendedData>
			<Point>
				<coordinates>25.950323,43.851883,0.0</coordinates>
			</Point>
		</Placemark>
		<Placemark>
			<name>Музейна зала "Тома Кърджиев"</name>
			<description><![CDATA[Музейна зала "Тома Кърджиев" ]]></description>
			<styleUrl>#icon-1257</styleUrl>
			<ExtendedData>
			</ExtendedData>
			<Point>
				<coordinates>25.946777,43.846104,0.0</coordinates>
			</Point>
		</Placemark>
		<Placemark>
			<name>Музейна сбирка "Светлоструй"</name>
			<description><![CDATA[Музейна сбирка "Светлоструй" ]]></description>
			<styleUrl>#icon-1257</styleUrl>
			<ExtendedData>
			</ExtendedData>
			<Point>
				<coordinates>26.041253,43.71424,0.0</coordinates>
			</Point>
		</Placemark>
		<Placemark>
			<name>Къща музей - Филип Тотю</name>
			<description><![CDATA[Къща музей - Филип Тотю ]]></description>
			<styleUrl>#icon-1257</styleUrl>
			<ExtendedData>
			</ExtendedData>
			<Point>
				<coordinates>25.873485,43.593841,0.0</coordinates>
			</Point>
		</Placemark>
		<Placemark>
			<name>Тракийска гробница</name>
			<description><![CDATA[Тракийска гробница ]]></description>
			<styleUrl>#icon-1257</styleUrl>
			<ExtendedData>
			</ExtendedData>
			<Point>
				<coordinates>26.202135,43.41924,0.0</coordinates>
			</Point>
		</Placemark>
		<Style id='icon-1257'>
			<IconStyle>
				<scale>1.1</scale>
				<Icon>
					<href>http://www.gstatic.com/mapspro/images/stock/1257-poi-government.png</href>
				</Icon>
			</IconStyle>
		</Style>
	</Document>
</kml>