<?xml version='1.0' encoding='UTF-8'?>
<kml xmlns='http://www.opengis.net/kml/2.2'>
	<Document>
		<name>Места за настаняване (wikimapia)</name>
		<Placemark>
			<name>Хотел Кованлъка</name>
			<description><![CDATA[Хотел Кованлъка ]]></description>
			<styleUrl>#icon-1197</styleUrl>
			<ExtendedData>
			</ExtendedData>
			<Point>
				<coordinates>26.47343,43.466559000000004,0.0</coordinates>
			</Point>
		</Placemark>
		<Placemark>
			<name>Хотелски комплекс „Роял Палас“</name>
			<description><![CDATA[Хотелски комплекс „Роял Палас“ ]]></description>
			<styleUrl>#icon-1197</styleUrl>
			<ExtendedData>
			</ExtendedData>
			<Point>
				<coordinates>26.164608000000005,43.664131,0.0</coordinates>
			</Point>
		</Placemark>
		<Placemark>
			<name>Винарски комплекс "Седем поколения"</name>
			<description><![CDATA[Винарски комплекс "Седем поколения" ]]></description>
			<styleUrl>#icon-1197</styleUrl>
			<ExtendedData>
			</ExtendedData>
			<Point>
				<coordinates>25.815261,43.710566,0.0</coordinates>
			</Point>
		</Placemark>
		<Placemark>
			<name>Вила Здравец</name>
			<description><![CDATA[Вила Здравец ]]></description>
			<styleUrl>#icon-1197</styleUrl>
			<ExtendedData>
			</ExtendedData>
			<Point>
				<coordinates>25.810992,43.445468,0.0</coordinates>
			</Point>
		</Placemark>
		<Placemark>
			<name>Hotel Steaua Dunarii (en)</name>
			<description><![CDATA[Hotel Steaua Dunarii (en) ]]></description>
			<styleUrl>#icon-1197</styleUrl>
			<ExtendedData>
			</ExtendedData>
			<Point>
				<coordinates>25.98007,43.899686,0.0</coordinates>
			</Point>
		</Placemark>
		<Placemark>
			<name>Хотел Люляка (Hotel Lyulyaka) (en)</name>
			<description><![CDATA[Хотел Люляка (Hotel Lyulyaka) (en) ]]></description>
			<styleUrl>#icon-1197</styleUrl>
			<ExtendedData>
			</ExtendedData>
			<Point>
				<coordinates>25.912065,43.8011,0.0</coordinates>
			</Point>
		</Placemark>
		<Placemark>
			<name>Хотел Рига</name>
			<description><![CDATA[Хотел Рига ]]></description>
			<styleUrl>#icon-1197</styleUrl>
			<ExtendedData>
			</ExtendedData>
			<Point>
				<coordinates>25.951751,43.85335100000001,0.0</coordinates>
			</Point>
		</Placemark>
		<Placemark>
			<name>Хотел "Биовет"</name>
			<description><![CDATA[Хотел "Биовет" ]]></description>
			<styleUrl>#icon-1197</styleUrl>
			<ExtendedData>
			</ExtendedData>
			<Point>
				<coordinates>26.472014000000005,43.472684,0.0</coordinates>
			</Point>
		</Placemark>
		<Placemark>
			<name>Семеен хотел "Орехите"</name>
			<description><![CDATA[Семеен хотел "Орехите" ]]></description>
			<styleUrl>#icon-1197</styleUrl>
			<ExtendedData>
			</ExtendedData>
			<Point>
				<coordinates>25.95191,43.715681,0.0</coordinates>
			</Point>
		</Placemark>
		<Placemark>
			<name>Приетения (ru)</name>
			<description><![CDATA[Приетения (ru) ]]></description>
			<styleUrl>#icon-1197</styleUrl>
			<ExtendedData>
			</ExtendedData>
			<Point>
				<coordinates>25.980292,43.908852,0.0</coordinates>
			</Point>
		</Placemark>
		<Placemark>
			<name>Хотел "Дунав плаза"</name>
			<description><![CDATA[Хотел "Дунав плаза" ]]></description>
			<styleUrl>#icon-1197</styleUrl>
			<ExtendedData>
			</ExtendedData>
			<Point>
				<coordinates>25.954685,43.849048,0.0</coordinates>
			</Point>
		</Placemark>
		<Placemark>
			<name>Хотелски комплекс "Дивайнс"</name>
			<description><![CDATA[Хотелски комплекс "Дивайнс" ]]></description>
			<styleUrl>#icon-1197</styleUrl>
			<ExtendedData>
			</ExtendedData>
			<Point>
				<coordinates>25.951409000000005,43.719287,0.0</coordinates>
			</Point>
		</Placemark>
		<Placemark>
			<name>Хотел „Космополитен“</name>
			<description><![CDATA[Хотел „Космополитен“ ]]></description>
			<styleUrl>#icon-1197</styleUrl>
			<ExtendedData>
			</ExtendedData>
			<Point>
				<coordinates>25.949719000000005,43.845542,0.0</coordinates>
			</Point>
		</Placemark>
		<Placemark>
			<name>Отель-ресторан "Анадалузия" (ru)</name>
			<description><![CDATA[Отель-ресторан "Анадалузия" (ru) ]]></description>
			<styleUrl>#icon-1197</styleUrl>
			<ExtendedData>
			</ExtendedData>
			<Point>
				<coordinates>25.974539,43.92785,0.0</coordinates>
			</Point>
		</Placemark>
		<Placemark>
			<name>Хотел Есперанто</name>
			<description><![CDATA[Хотел Есперанто ]]></description>
			<styleUrl>#icon-1197</styleUrl>
			<ExtendedData>
			</ExtendedData>
			<Point>
				<coordinates>25.634763,43.369814000000005,0.0</coordinates>
			</Point>
		</Placemark>
		<Placemark>
			<name>Хотел "Брани,,</name>
			<description><![CDATA[Хотел "Брани,, ]]></description>
			<styleUrl>#icon-1197</styleUrl>
			<ExtendedData>
			</ExtendedData>
			<Point>
				<coordinates>25.950217,43.83129,0.0</coordinates>
			</Point>
		</Placemark>
		<Placemark>
			<name>Мотел "Магнолия"</name>
			<description><![CDATA[Мотел "Магнолия" ]]></description>
			<styleUrl>#icon-1197</styleUrl>
			<ExtendedData>
			</ExtendedData>
			<Point>
				<coordinates>25.714735,43.46885000000001,0.0</coordinates>
			</Point>
		</Placemark>
		<Placemark>
			<name>Отель "Космо" (ru)</name>
			<description><![CDATA[Отель "Космо" (ru) ]]></description>
			<styleUrl>#icon-1197</styleUrl>
			<ExtendedData>
			</ExtendedData>
			<Point>
				<coordinates>25.971294,43.914764,0.0</coordinates>
			</Point>
		</Placemark>
		<Placemark>
			<name>Hotel Sud (en)</name>
			<description><![CDATA[Hotel Sud (en) ]]></description>
			<styleUrl>#icon-1197</styleUrl>
			<ExtendedData>
			</ExtendedData>
			<Point>
				<coordinates>25.97653,43.907058,0.0</coordinates>
			</Point>
		</Placemark>
		<Placemark>
			<name>Хотел Комплекс Извора</name>
			<description><![CDATA[Хотел Комплекс Извора ]]></description>
			<styleUrl>#icon-1197</styleUrl>
			<ExtendedData>
			</ExtendedData>
			<Point>
				<coordinates>25.947895,43.842488,0.0</coordinates>
			</Point>
		</Placemark>
		<Placemark>
			<name>Хотел</name>
			<description><![CDATA[Хотел ]]></description>
			<styleUrl>#icon-1197</styleUrl>
			<ExtendedData>
			</ExtendedData>
			<Point>
				<coordinates>26.058232,43.647656,0.0</coordinates>
			</Point>
		</Placemark>
		<Placemark>
			<name>Хотел "Бедрум плейс"</name>
			<description><![CDATA[Хотел "Бедрум плейс" ]]></description>
			<styleUrl>#icon-1197</styleUrl>
			<ExtendedData>
			</ExtendedData>
			<Point>
				<coordinates>25.969344,43.842678,0.0</coordinates>
			</Point>
		</Placemark>
		<Placemark>
			<name>Хотел „Кристал“</name>
			<description><![CDATA[Хотел „Кристал“ ]]></description>
			<styleUrl>#icon-1197</styleUrl>
			<ExtendedData>
			</ExtendedData>
			<Point>
				<coordinates>25.948433,43.84330200000001,0.0</coordinates>
			</Point>
		</Placemark>
		<Placemark>
			<name>Хотел Ана Палас</name>
			<description><![CDATA[Хотел Ана Палас ]]></description>
			<styleUrl>#icon-1197</styleUrl>
			<ExtendedData>
			</ExtendedData>
			<Point>
				<coordinates>25.946745,43.847574,0.0</coordinates>
			</Point>
		</Placemark>
		<Placemark>
			<name>Клуб "Валдес"</name>
			<description><![CDATA[Клуб "Валдес" ]]></description>
			<styleUrl>#icon-1197</styleUrl>
			<ExtendedData>
			</ExtendedData>
			<Point>
				<coordinates>25.952711,43.718218,0.0</coordinates>
			</Point>
		</Placemark>
		<Placemark>
			<name>Хотел Виктория</name>
			<description><![CDATA[Хотел Виктория ]]></description>
			<styleUrl>#icon-1197</styleUrl>
			<ExtendedData>
			</ExtendedData>
			<Point>
				<coordinates>25.963944,43.890808,0.0</coordinates>
			</Point>
		</Placemark>
		<Placemark>
			<name>Горски дом</name>
			<description><![CDATA[Горски дом ]]></description>
			<styleUrl>#icon-1197</styleUrl>
			<ExtendedData>
			</ExtendedData>
			<Point>
				<coordinates>26.02024,43.679088,0.0</coordinates>
			</Point>
		</Placemark>
		<Placemark>
			<name>Мотел "Формула 1"</name>
			<description><![CDATA[Мотел "Формула 1" ]]></description>
			<styleUrl>#icon-1197</styleUrl>
			<ExtendedData>
			</ExtendedData>
			<Point>
				<coordinates>25.722147,43.468801,0.0</coordinates>
			</Point>
		</Placemark>
		<Placemark>
			<name>Хотел "Черният щъркел"</name>
			<description><![CDATA[Хотел "Черният щъркел" ]]></description>
			<styleUrl>#icon-1197</styleUrl>
			<ExtendedData>
			</ExtendedData>
			<Point>
				<coordinates>26.071352000000005,43.654031,0.0</coordinates>
			</Point>
		</Placemark>
		<Placemark>
			<name>Хотел "Бест Уестърн"</name>
			<description><![CDATA[Хотел "Бест Уестърн" ]]></description>
			<styleUrl>#icon-1197</styleUrl>
			<ExtendedData>
			</ExtendedData>
			<Point>
				<coordinates>25.954994,43.845882,0.0</coordinates>
			</Point>
		</Placemark>
		<Placemark>
			<name>Хотел Вега</name>
			<description><![CDATA[Хотел Вега ]]></description>
			<styleUrl>#icon-1197</styleUrl>
			<ExtendedData>
			</ExtendedData>
			<Point>
				<coordinates>25.954628,43.85001700000001,0.0</coordinates>
			</Point>
		</Placemark>
		<Placemark>
			<name>Хотел</name>
			<description><![CDATA[Хотел ]]></description>
			<styleUrl>#icon-1197</styleUrl>
			<ExtendedData>
			</ExtendedData>
			<Point>
				<coordinates>25.986181,43.908266,0.0</coordinates>
			</Point>
		</Placemark>
		<Placemark>
			<name>Хотел Дунав</name>
			<description><![CDATA[Хотел Дунав ]]></description>
			<styleUrl>#icon-1197</styleUrl>
			<ExtendedData>
			</ExtendedData>
			<Point>
				<coordinates>25.97743,43.844937,0.0</coordinates>
			</Point>
		</Placemark>
		<Placemark>
			<name>Хотелски комплекс "ВАДИС"</name>
			<description><![CDATA[Хотелски комплекс "ВАДИС" ]]></description>
			<styleUrl>#icon-1197</styleUrl>
			<ExtendedData>
			</ExtendedData>
			<Point>
				<coordinates>25.95207,43.837038,0.0</coordinates>
			</Point>
		</Placemark>
		<Placemark>
			<name>Хотел "Сплендид"</name>
			<description><![CDATA[Хотел "Сплендид" ]]></description>
			<styleUrl>#icon-1197</styleUrl>
			<ExtendedData>
			</ExtendedData>
			<Point>
				<coordinates>25.951284,43.84817,0.0</coordinates>
			</Point>
		</Placemark>
		<Placemark>
			<name>Hotel Vlaşca (en)</name>
			<description><![CDATA[Hotel Vlaşca (en) ]]></description>
			<styleUrl>#icon-1197</styleUrl>
			<ExtendedData>
			</ExtendedData>
			<Point>
				<coordinates>25.966766,43.88873,0.0</coordinates>
			</Point>
		</Placemark>
		<Placemark>
			<name>Хотел Русенски Лом</name>
			<description><![CDATA[Хотел Русенски Лом ]]></description>
			<styleUrl>#icon-1197</styleUrl>
			<ExtendedData>
			</ExtendedData>
			<Point>
				<coordinates>25.995421,43.660745,0.0</coordinates>
			</Point>
		</Placemark>
		<Placemark>
			<name>Хотел „Милениа“ **</name>
			<description><![CDATA[Хотел „Милениа“ ** ]]></description>
			<styleUrl>#icon-1197</styleUrl>
			<ExtendedData>
			</ExtendedData>
			<Point>
				<coordinates>25.976595,43.856289,0.0</coordinates>
			</Point>
		</Placemark>
		<Placemark>
			<name>Сити Арт Хотел</name>
			<description><![CDATA[Сити Арт Хотел ]]></description>
			<styleUrl>#icon-1197</styleUrl>
			<ExtendedData>
			</ExtendedData>
			<Point>
				<coordinates>25.949452,43.849286,0.0</coordinates>
			</Point>
		</Placemark>
		<Placemark>
			<name>Хотел  РУСЕ</name>
			<description><![CDATA[Хотел  РУСЕ ]]></description>
			<styleUrl>#icon-1197</styleUrl>
			<ExtendedData>
			</ExtendedData>
			<Point>
				<coordinates>25.955176,43.84013900000001,0.0</coordinates>
			</Point>
		</Placemark>
		<Placemark>
			<name>Хотел Чарлино</name>
			<description><![CDATA[Хотел Чарлино ]]></description>
			<styleUrl>#icon-1197</styleUrl>
			<ExtendedData>
			</ExtendedData>
			<Point>
				<coordinates>25.947003,43.84451,0.0</coordinates>
			</Point>
		</Placemark>
		<Placemark>
			<name>Английска къща за гости</name>
			<description><![CDATA[Английска къща за гости ]]></description>
			<styleUrl>#icon-1197</styleUrl>
			<ExtendedData>
			</ExtendedData>
			<Point>
				<coordinates>25.953099000000005,43.852058,0.0</coordinates>
			</Point>
		</Placemark>
		<Placemark>
			<name>Хотел "Янтра"</name>
			<description><![CDATA[Хотел "Янтра" ]]></description>
			<styleUrl>#icon-1197</styleUrl>
			<ExtendedData>
			</ExtendedData>
			<Point>
				<coordinates>25.737606000000003,43.459303,0.0</coordinates>
			</Point>
		</Placemark>
		<Placemark>
			<name>Къща за гости "The Summer"</name>
			<description><![CDATA[Къща за гости "The Summer" ]]></description>
			<styleUrl>#icon-1197</styleUrl>
			<ExtendedData>
			</ExtendedData>
			<Point>
				<coordinates>26.071978,43.916541,0.0</coordinates>
			</Point>
		</Placemark>
		<Placemark>
			<name>Хотел "Одисей"</name>
			<description><![CDATA[Хотел "Одисей" ]]></description>
			<styleUrl>#icon-1197</styleUrl>
			<ExtendedData>
			</ExtendedData>
			<Point>
				<coordinates>25.949334,43.846854,0.0</coordinates>
			</Point>
		</Placemark>
		<Placemark>
			<name>Хотел "Одеса"</name>
			<description><![CDATA[Хотел "Одеса" ]]></description>
			<styleUrl>#icon-1197</styleUrl>
			<ExtendedData>
			</ExtendedData>
			<Point>
				<coordinates>25.733817,43.46072,0.0</coordinates>
			</Point>
		</Placemark>
		<Placemark>
			<name>Хотел "Резиденс хаус"</name>
			<description><![CDATA[Хотел "Резиденс хаус" ]]></description>
			<styleUrl>#icon-1197</styleUrl>
			<ExtendedData>
			</ExtendedData>
			<Point>
				<coordinates>25.949727,43.850802,0.0</coordinates>
			</Point>
		</Placemark>
		<Placemark>
			<name>хотел Национал</name>
			<description><![CDATA[хотел Национал ]]></description>
			<styleUrl>#icon-1197</styleUrl>
			<ExtendedData>
			</ExtendedData>
			<Point>
				<coordinates>25.949715,43.839261,0.0</coordinates>
			</Point>
		</Placemark>
		<Placemark>
			<name>Хотел "Лилия"</name>
			<description><![CDATA[Хотел "Лилия" ]]></description>
			<styleUrl>#icon-1197</styleUrl>
			<ExtendedData>
			</ExtendedData>
			<Point>
				<coordinates>25.953285,43.852093,0.0</coordinates>
			</Point>
		</Placemark>
		<Placemark>
			<name>Семеен хотел Русе</name>
			<description><![CDATA[Семеен хотел Русе ]]></description>
			<styleUrl>#icon-1197</styleUrl>
			<ExtendedData>
			</ExtendedData>
			<Point>
				<coordinates>25.955075,43.840382,0.0</coordinates>
			</Point>
		</Placemark>
		<Placemark>
			<name>Хотел "Плаза"</name>
			<description><![CDATA[Хотел "Плаза" ]]></description>
			<styleUrl>#icon-1197</styleUrl>
			<ExtendedData>
			</ExtendedData>
			<Point>
				<coordinates>25.960004,43.852657,0.0</coordinates>
			</Point>
		</Placemark>
		<Placemark>
			<name>Хотел-ресторант-бар "Верона"</name>
			<description><![CDATA[Хотел-ресторант-бар "Верона" ]]></description>
			<styleUrl>#icon-1197</styleUrl>
			<ExtendedData>
			</ExtendedData>
			<Point>
				<coordinates>25.734634,43.460772,0.0</coordinates>
			</Point>
		</Placemark>
		<Placemark>
			<name>Горски дом</name>
			<description><![CDATA[Горски дом ]]></description>
			<styleUrl>#icon-1197</styleUrl>
			<ExtendedData>
			</ExtendedData>
			<Point>
				<coordinates>26.02024,43.679088,0.0</coordinates>
			</Point>
		</Placemark>
		<Placemark>
			<name>Хижа "Здравец"</name>
			<description><![CDATA[Хижа "Здравец" ]]></description>
			<styleUrl>#icon-1197</styleUrl>
			<ExtendedData>
			</ExtendedData>
			<Point>
				<coordinates>26.037252,43.824704,0.0</coordinates>
			</Point>
		</Placemark>
		<Placemark>
			<name>Хижа Каяджика</name>
			<description><![CDATA[Хижа Каяджика ]]></description>
			<styleUrl>#icon-1197</styleUrl>
			<ExtendedData>
			</ExtendedData>
			<Point>
				<coordinates>25.947239,43.414276,0.0</coordinates>
			</Point>
		</Placemark>
		<Placemark>
			<name>Хижа "Горски кът"</name>
			<description><![CDATA[Хижа "Горски кът" ]]></description>
			<styleUrl>#icon-1197</styleUrl>
			<ExtendedData>
			</ExtendedData>
			<Point>
				<coordinates>26.47218,43.776873,0.0</coordinates>
			</Point>
		</Placemark>
		<Placemark>
			<name>Хижа "Приста"</name>
			<description><![CDATA[Хижа "Приста" ]]></description>
			<styleUrl>#icon-1197</styleUrl>
			<ExtendedData>
			</ExtendedData>
			<Point>
				<coordinates>25.917842,43.800089,0.0</coordinates>
			</Point>
		</Placemark>
		<Placemark>
			<name>Ловна хижа "Бялалес"</name>
			<description><![CDATA[Ловна хижа "Бялалес" ]]></description>
			<styleUrl>#icon-1197</styleUrl>
			<ExtendedData>
			</ExtendedData>
			<Point>
				<coordinates>25.770074,43.40486,0.0</coordinates>
			</Point>
		</Placemark>
		<Placemark>
			<name>Хижа "Люляк"</name>
			<description><![CDATA[Хижа "Люляк" ]]></description>
			<styleUrl>#icon-1197</styleUrl>
			<ExtendedData>
			</ExtendedData>
			<Point>
				<coordinates>25.947014000000003,43.37007100000001,0.0</coordinates>
			</Point>
		</Placemark>
		<Placemark>
			<name>хижа "Янтра"</name>
			<description><![CDATA[хижа "Янтра" ]]></description>
			<styleUrl>#icon-1197</styleUrl>
			<ExtendedData>
			</ExtendedData>
			<Point>
				<coordinates>25.774462,43.40769,0.0</coordinates>
			</Point>
		</Placemark>
		<Placemark>
			<name>хижа "Калето"</name>
			<description><![CDATA[хижа "Калето" ]]></description>
			<styleUrl>#icon-1197</styleUrl>
			<ExtendedData>
			</ExtendedData>
			<Point>
				<coordinates>26.213218000000005,43.449391,0.0</coordinates>
			</Point>
		</Placemark>
		<Placemark>
			<name>Хижа "Паламарца"</name>
			<description><![CDATA[Хижа "Паламарца" ]]></description>
			<styleUrl>#icon-1197</styleUrl>
			<ExtendedData>
			</ExtendedData>
			<Point>
				<coordinates>26.132044,43.415334,0.0</coordinates>
			</Point>
		</Placemark>
		<Placemark>
			<name>Ловна хижа</name>
			<description><![CDATA[Ловна хижа ]]></description>
			<styleUrl>#icon-1197</styleUrl>
			<ExtendedData>
			</ExtendedData>
			<Point>
				<coordinates>25.542577,43.576194,0.0</coordinates>
			</Point>
		</Placemark>
		<Placemark>
			<name>Ловна хижа</name>
			<description><![CDATA[Ловна хижа ]]></description>
			<styleUrl>#icon-1197</styleUrl>
			<ExtendedData>
			</ExtendedData>
			<Point>
				<coordinates>25.938728,43.48470600000001,0.0</coordinates>
			</Point>
		</Placemark>
		<Placemark>
			<name>Туристическа хижа</name>
			<description><![CDATA[Туристическа хижа ]]></description>
			<styleUrl>#icon-1197</styleUrl>
			<ExtendedData>
			</ExtendedData>
			<Point>
				<coordinates>25.740586,43.533549,0.0</coordinates>
			</Point>
		</Placemark>
		<Placemark>
			<name>Ловна хижа "Баталкията"</name>
			<description><![CDATA[Ловна хижа "Баталкията" ]]></description>
			<styleUrl>#icon-1197</styleUrl>
			<ExtendedData>
			</ExtendedData>
			<Point>
				<coordinates>26.118294,43.645512,0.0</coordinates>
			</Point>
		</Placemark>
		<Placemark>
			<name>Хижа "Минзухар"</name>
			<description><![CDATA[Хижа "Минзухар" ]]></description>
			<styleUrl>#icon-1197</styleUrl>
			<ExtendedData>
			</ExtendedData>
			<Point>
				<coordinates>26.055780000000002,43.821814,0.0</coordinates>
			</Point>
		</Placemark>
		<Placemark>
			<name>Хижа</name>
			<description><![CDATA[Хижа ]]></description>
			<styleUrl>#icon-1197</styleUrl>
			<ExtendedData>
			</ExtendedData>
			<Point>
				<coordinates>25.984489000000004,43.69543,0.0</coordinates>
			</Point>
		</Placemark>
		<Placemark>
			<name>Хижа Брестовица</name>
			<description><![CDATA[Хижа Брестовица ]]></description>
			<styleUrl>#icon-1197</styleUrl>
			<ExtendedData>
			</ExtendedData>
			<Point>
				<coordinates>25.766597,43.520414,0.0</coordinates>
			</Point>
		</Placemark>
		<Placemark>
			<name>Хижа "Янтра"</name>
			<description><![CDATA[Хижа "Янтра" ]]></description>
			<styleUrl>#icon-1197</styleUrl>
			<ExtendedData>
			</ExtendedData>
			<Point>
				<coordinates>25.670705,43.442993,0.0</coordinates>
			</Point>
		</Placemark>
		<Placemark>
			<name>Хижа "Алпинист"</name>
			<description><![CDATA[Хижа "Алпинист" ]]></description>
			<styleUrl>#icon-1197</styleUrl>
			<ExtendedData>
			</ExtendedData>
			<Point>
				<coordinates>25.953911,43.763835,0.0</coordinates>
			</Point>
		</Placemark>
		<Placemark>
			<name>Хижа „Орлова чука“</name>
			<description><![CDATA[Хижа „Орлова чука“ ]]></description>
			<styleUrl>#icon-1197</styleUrl>
			<ExtendedData>
			</ExtendedData>
			<Point>
				<coordinates>25.9589,43.593813,0.0</coordinates>
			</Point>
		</Placemark>
		<Style id='icon-1197'>
			<IconStyle>
				<scale>1.1</scale>
				<Icon>
					<href>http://www.gstatic.com/mapspro/images/stock/1197-fac-headquarters.png</href>
				</Icon>
			</IconStyle>
		</Style>
	</Document>
</kml>